ident,port_type,name,latitude_deg,longitude_deg,iso_country,iso_region,municipality,iata_code,local_code
AMC,large_airport,Mar de Cortés International Airport,31.351621000,-113.305864000,MX,MX-SON,Puerto Peñasco,PPE,
AYPY,large_airport,Port Moresby Jacksons International Airport,-9.443380356,147.220001221,PG,PG-NCD,Port Moresby,POM,
BIKF,large_airport,Keflavik International Airport,63.985000610,-22.605600357,IS,IS-2,Reykjavík,KEF,
BKPR,large_airport,Priština International Airport,42.572800000,21.035801000,XK,XK-01,Prishtina,PRN,
CMN,large_airport,CMN,0.000000000,0.000000000,MA,MA-CAS,,CMN,
CYEG,large_airport,Edmonton International Airport,53.309700012,-113.580001831,CA,CA-AB,Edmonton,YEG,CYEG
CYHZ,large_airport,Halifax / Stanfield International Airport,44.880798340,-63.508598328,CA,CA-NS,Halifax,YHZ,
CYOW,large_airport,Ottawa Macdonald-Cartier International Airport,45.322498322,-75.669197083,CA,CA-ON,Ottawa,YOW,YOW
CYUL,large_airport,Montreal / Pierre Elliott Trudeau International Airport,45.470600128,-73.740798950,CA,CA-QC,Montréal,YUL,YUL
CYVR,large_airport,Vancouver International Airport,49.193901062,-123.183998108,CA,CA-BC,Vancouver,YVR,
CYWG,large_airport,Winnipeg / James Armstrong Richardson International Airport,49.909999847,-97.239898682,CA,CA-MB,Winnipeg,YWG,YWG
CYYC,large_airport,Calgary International Airport,51.113899231,-114.019996643,CA,CA-AB,Calgary,YYC,
CYYJ,large_airport,Victoria International Airport,48.646900177,-123.426002502,CA,CA-BC,Victoria,YYJ,
CYYT,large_airport,St. John's International Airport,47.618598938,-52.751899719,CA,CA-NL,St. John's,YYT,
CYYZ,large_airport,Lester B. Pearson International Airport,43.677200317,-79.630599976,CA,CA-ON,Toronto,YYZ,YYZ
DAAG,large_airport,Houari Boumediene Airport,36.691001892,3.215409994,DZ,DZ-35,Algiers,ALG,
DGAA,large_airport,Kotoka International Airport,5.605189800,-0.166786000,GH,GH-AA,Accra,ACC,
DNAA,large_airport,Nnamdi Azikiwe International Airport,9.006790161,7.263169765,NG,NG-FC,Abuja,ABV,
DNAI,large_airport,Akwa Ibom International Airport,4.872500000,8.093000000,NG,NG-AK,Uyo,QUO,
DNKN,large_airport,Mallam Aminu International Airport,12.047600000,8.524620000,NG,NG-KN,Kano,KAN,
DNMM,large_airport,Murtala Muhammed International Airport,6.577370167,3.321160078,NG,NG-LA,Lagos,LOS,
DTTA,large_airport,Tunis Carthage International Airport,36.851001740,10.227199554,TN,TN-11,Tunis,TUN,
EBBR,large_airport,Brussels Airport,50.901401520,4.484439850,BE,BE-BRU,Brussels,BRU,
EBCI,large_airport,Brussels South Charleroi Airport,50.459202000,4.453820000,BE,BE-WHT,Brussels,CRL,
EBLG,large_airport,Liège Airport,50.637401581,5.443220139,BE,BE-WLG,Liège,LGG,
EDDB,large_airport,Berlin-Schönefeld Airport,52.380001000,13.522500000,DE,DE-BR,Berlin,SXF,
EDDC,large_airport,Dresden Airport,51.132801056,13.767200470,DE,DE-SN,Dresden,DRS,
EDDF,large_airport,Frankfurt am Main Airport,50.033333000,8.570556000,DE,DE-HE,Frankfurt am Main,FRA,
EDDG,large_airport,Münster Osnabrück Airport,52.134601593,7.684830189,DE,DE-NW,Münster,FMO,
EDDH,large_airport,Hamburg Airport,53.630401611,9.988229752,DE,DE-HH,Hamburg,HAM,
EDDK,large_airport,Cologne Bonn Airport,50.865898132,7.142739773,DE,DE-NW,Cologne,CGN,
EDDL,large_airport,Düsseldorf Airport,51.289501000,6.766780000,DE,DE-NW,Düsseldorf,DUS,
EDDM,large_airport,Munich Airport,48.353802000,11.786100000,DE,DE-BY,Munich,MUC,
EDDN,large_airport,Nuremberg Airport,49.498699000,11.078056000,DE,DE-BY,Nuremberg,NUE,
EDDP,large_airport,Leipzig/Halle Airport,51.423889000,12.236389000,DE,DE-SN,Leipzig,LEJ,
EDDS,large_airport,Stuttgart Airport,48.689899445,9.221960068,DE,DE-BW,Stuttgart,STR,
EDDT,large_airport,Berlin-Tegel Airport,52.559700000,13.287700000,DE,DE-BE,Berlin,TXL,
EDDV,large_airport,Hannover Airport,52.461101532,9.685079575,DE,DE-NI,Hannover,HAJ,
EDDW,large_airport,Bremen Airport,53.047500610,8.786669731,DE,DE-HB,Bremen,BRE,
EDLW,large_airport,Dortmund Airport,51.518299103,7.612239838,DE,DE-NW,Dortmund,DTM,
EDSB,large_airport,Karlsruhe Baden-Baden Airport,48.779399872,8.080499649,DE,DE-BW,Baden-Baden,FKB,
EETN,large_airport,Lennart Meri Tallinn Airport,59.413299561,24.832799912,EE,EE-37,Tallinn,TLL,
EFHK,large_airport,Helsinki Vantaa Airport,60.317199707,24.963300705,FI,FI-ES,Helsinki,HEL,
EGAA,large_airport,Belfast International Airport,54.657501221,-6.215829849,GB,GB-NIR,Belfast,BFS,
EGAC,large_airport,George Best Belfast City Airport,54.618099213,-5.872499943,GB,GB-NIR,Belfast,BHD,
EGBB,large_airport,Birmingham International Airport,52.453899384,-1.748029947,GB,GB-ENG,Birmingham,BHX,
EGCC,large_airport,Manchester Airport,53.353698730,-2.274950027,GB,GB-ENG,Manchester,MAN,
EGCN,large_airport,Robin Hood Doncaster Sheffield Airport,53.480537811,-1.010656357,GB,GB-ENG,Doncaster,DSA,
EGFF,large_airport,Cardiff International Airport,51.396701813,-3.343329906,GB,GB-WLS,Cardiff,CWL,
EGGD,large_airport,Bristol Airport,51.382702000,-2.719090000,GB,GB-ENG,Bristol,BRS,
EGGP,large_airport,Liverpool John Lennon Airport,53.333599091,-2.849720001,GB,GB-ENG,Liverpool,LPL,
EGGW,large_airport,London Luton Airport,51.874698639,-0.368333012,GB,GB-ENG,London,LTN,
EGHH,large_airport,Bournemouth Airport,50.779998779,-1.842499971,GB,GB-ENG,Bournemouth,BOH,
EGHI,large_airport,Southampton Airport,50.950298309,-1.356799960,GB,GB-ENG,Southampton,SOU,
EGKK,large_airport,London Gatwick Airport,51.148101807,-0.190277994,GB,GB-ENG,London,LGW,
EGLL,large_airport,London Heathrow Airport,51.470600000,-0.461941000,GB,GB-ENG,London,LHR,
EGNM,large_airport,Leeds Bradford Airport,53.865898132,-1.660570025,GB,GB-ENG,Leeds,LBA,
EGNT,large_airport,Newcastle Airport,55.037498474,-1.691669941,GB,GB-ENG,Newcastle,NCL,
EGNX,large_airport,East Midlands Airport,52.831100464,-1.328060031,GB,GB-ENG,Nottingham,EMA,
EGPD,large_airport,Aberdeen Dyce Airport,57.201900482,-2.197779894,GB,GB-SCT,Aberdeen,ABZ,
EGPF,large_airport,Glasgow International Airport,55.871898651,-4.433060169,GB,GB-SCT,Glasgow,GLA,
EGPH,large_airport,Edinburgh Airport,55.950000763,-3.372499943,GB,GB-SCT,Edinburgh,EDI,
EGSH,large_airport,Norwich International Airport,52.675800324,1.282780051,GB,GB-ENG,Norwich,NWI,
EGSS,large_airport,London Stansted Airport,51.884998322,0.234999999,GB,GB-ENG,London,STN,
EGTE,large_airport,Exeter International Airport,50.734401703,-3.413889885,GB,GB-ENG,Exeter,EXT,
EGUL,large_airport,RAF Lakenheath,52.409301758,0.560999990,GB,GB-ENG,Lakenheath,LKZ,
EGUN,large_airport,RAF Mildenhall,52.361900330,0.486405998,GB,GB-ENG,Mildenhall,MHZ,
EGVA,large_airport,RAF Fairford,51.682201386,-1.790030003,GB,GB-ENG,Fairford,FFD,
EGVN,large_airport,RAF Brize Norton,51.750000000,-1.583620000,GB,GB-ENG,Brize Norton,BZZ,
EHAM,large_airport,Amsterdam Airport Schiphol,52.308601379,4.763889790,NL,NL-NH,Amsterdam,AMS,
EHBK,large_airport,Maastricht Aachen Airport,50.911701202,5.770140171,NL,NL-LI,Maastricht,MST,
EHEH,large_airport,Eindhoven Airport,51.450099945,5.374529839,NL,NL-NB,Eindhoven,EIN,
EICK,large_airport,Cork Airport,51.841300964,-8.491109848,IE,IE-C,Cork,ORK,
EIDW,large_airport,Dublin Airport,53.421299000,-6.270070000,IE,IE-D,Dublin,DUB,
EINN,large_airport,Shannon Airport,52.701999664,-8.924819946,IE,IE-CE,Limerick,SNN,
EKBI,large_airport,Billund Airport,55.740299225,9.151780128,DK,DK-83,Billund,BLL,
EKCH,large_airport,Copenhagen Kastrup Airport,55.617900848,12.656000137,DK,DK-84,Copenhagen,CPH,
EKYT,large_airport,Aalborg Airport,57.092758914,9.849243164,DK,DK-81,Aalborg,AAL,
ELLX,large_airport,Luxembourg-Findel International Airport,49.623333300,6.204444400,LU,LU-L,Luxembourg,LUX,
ENBO,large_airport,Bodø Airport,67.269203186,14.365300179,NO,NO-18,Bodø,BOO,
ENBR,large_airport,Bergen Airport Flesland,60.293399810,5.218140125,NO,NO-12,Bergen,BGO,
ENGM,large_airport,Oslo Gardermoen Airport,60.193901062,11.100399971,NO,NO-02,Oslo,OSL,
ENTC,large_airport,Tromsø Airport,69.683296204,18.918899536,NO,NO-19,Tromsø,TOS,
ENVA,large_airport,Trondheim Airport Værnes,63.457801800,10.923999800,NO,NO-17,Trondheim,TRD,
ENZV,large_airport,Stavanger Airport Sola,58.876701354,5.637780190,NO,NO-11,Stavanger,SVG,
EPGD,large_airport,Gdańsk Lech Wałęsa Airport,54.377601624,18.466199875,PL,PL-PM,Gdańsk,GDN,
EPKK,large_airport,John Paul II International Airport Kraków-Balice Airport,50.077701569,19.784799576,PL,PL-MA,Kraków,KRK,
EPKT,large_airport,Katowice International Airport,50.474300000,19.080000000,PL,PL-SL,Katowice,KTW,
EPMO,large_airport,Modlin Airport,52.451099396,20.651800156,PL,PL-MZ,Warsaw,WMI,
EPPO,large_airport,Poznań-Ławica Airport,52.421001434,16.826299667,PL,PL-WP,Poznań,POZ,
EPWA,large_airport,Warsaw Chopin Airport,52.165699005,20.967100143,PL,PL-MZ,Warsaw,WAW,
EPWR,large_airport,Copernicus Wrocław Airport,51.102699280,16.885799408,PL,PL-DS,Wrocław,WRO,
ESGG,large_airport,Gothenburg-Landvetter Airport,57.662799835,12.279800415,SE,SE-Q,Gothenburg,GOT,
ESMS,large_airport,Malmö Sturup Airport,55.536305364,13.376197815,SE,SE-M,Malmö,MMX,
ESPA,large_airport,Luleå Airport,65.543800354,22.121999741,SE,SE-BD,Luleå,LLA,
ESSA,large_airport,Stockholm-Arlanda Airport,59.651901245,17.918600082,SE,SE-AB,Stockholm,ARN,
ETAR,large_airport,Ramstein Air Base,49.436901093,7.600279808,DE,DE-RP,Ramstein,RMS,
EVRA,large_airport,Riga International Airport,56.923599243,23.971099854,LV,LV-RIX,Riga,RIX,
EYVI,large_airport,Vilnius International Airport,54.634102000,25.285801000,LT,LT-VL,Vilnius,VNO,
FACT,large_airport,Cape Town International Airport,-33.964801788,18.601699829,ZA,ZA-WC,Cape Town,CPT,
FAGG,large_airport,George Airport,-34.005600000,22.378902000,ZA,ZA-WC,George,GRJ,
FAJS,large_airport,OR Tambo International Airport,-26.139200000,28.246000000,ZA,ZA-GT,Johannesburg,JNB,
FALE,large_airport,King Shaka International Airport,-29.614444444,31.119722222,ZA,ZA-NL,Durban,DUR,
FAOR,large_airport,OR Tambo International Airport,-26.139200000,28.246000000,ZA,ZA-GT,Johannesburg,JNB,
FIMR,large_airport,Sir Charles Gaetan Duval Airport,-19.757700000,63.361000000,MU,MU-VP,Port Mathurin,RRG,
FLLS,large_airport,Kenneth Kaunda International Airport Lusaka,-15.330800057,28.452600479,ZM,ZM-09,Lusaka,LUN,
GCLP,large_airport,Gran Canaria Airport,27.931900024,-15.386599541,ES,ES-CN,Gran Canaria Island,LPA,
GCTS,large_airport,Tenerife South Airport,28.044500351,-16.572500229,ES,ES-CN,Tenerife Island,TFS,
GCXO,large_airport,Tenerife Norte Airport,28.482700348,-16.341499329,ES,ES-CN,Tenerife Island,TFN,
GMMN,large_airport,Mohammed V International Airport,33.367500305,-7.589970112,MA,MA-CAS,Casablanca,CMN,
GOBD,large_airport,Diass-Thies Blaise Diagne International Airport,14.670000000,-17.073333333,SN,SN-DK,Dakar,DSS,
GOOY,large_airport,Léopold Sédar Senghor International Airport,14.739700317,-17.490200043,SN,SN-DK,Dakar,DKR,
GQNO,large_airport,Nouakchott–Oumtounsy International Airport,18.310000000,-15.969722200,MR,MR-NKC,Nouakchott,NKC,
HAAB,large_airport,Addis Ababa Bole International Airport,8.977890015,38.799301148,ET,ET-AA,Addis Ababa,ADD,
HECA,large_airport,Cairo International Airport,30.121900558,31.405599594,EG,EG-C,Cairo,CAI,
HEGN,large_airport,Hurghada International Airport,27.178300858,33.799400330,EG,EG-BA,Hurghada,HRG,
HELX,large_airport,Luxor International Airport,25.671000000,32.706600000,EG,EG-KN,Luxor,LXR,
HKJK,large_airport,Jomo Kenyatta International Airport,-1.319239974,36.927799225,KE,KE-110,Nairobi,NBO,
HKMO,large_airport,Mombasa Moi International Airport,-4.034830093,39.594200134,KE,KE-300,Mombasa,MBA,
HLLT,large_airport,Tripoli International Airport,32.663501740,13.159000397,LY,LY-TB,Tripoli,TIP,
HSSJ,large_airport,Juba International Airport,4.872010231,31.601100922,SS,SS-17,Juba,JUB,
HSSS,large_airport,Khartoum International Airport,15.589500427,32.553199768,SD,SD-03,Khartoum,KRT,
HTDA,large_airport,Julius Nyerere International Airport,-6.878110000,39.202599000,TZ,TZ-02,Dar es Salaam,DAR,
KABQ,large_airport,Albuquerque International Sunport Airport,35.040199000,-106.609001000,US,US-NM,Albuquerque,ABQ,ABQ
KADW,large_airport,Andrews Air Force Base,38.810799000,-76.866997000,US,US-MD,Camp Springs,ADW,ADW
KAFW,large_airport,Fort Worth Alliance Airport,32.987598419,-97.318801880,US,US-TX,Fort Worth,AFW,AFW
KAGS,large_airport,Augusta Regional At Bush Field,33.369899750,-81.964500427,US,US-GA,Augusta,AGS,AGS
KAMA,large_airport,Rick Husband Amarillo International Airport,35.219398000,-101.706001000,US,US-TX,Amarillo,AMA,AMA
KATL,large_airport,Hartsfield Jackson Atlanta International Airport,33.636699677,-84.428100586,US,US-GA,Atlanta,ATL,ATL
KAUS,large_airport,Austin Bergstrom International Airport,30.194499969,-97.669898987,US,US-TX,Austin,AUS,AUS
KAVL,large_airport,Asheville Regional Airport,35.436199188,-82.541801453,US,US-NC,Asheville,AVL,AVL
KBAB,large_airport,Beale Air Force Base,39.136100769,-121.436996460,US,US-CA,Marysville,BAB,BAB
KBAD,large_airport,Barksdale Air Force Base,32.501800537,-93.662696838,US,US-LA,Bossier City,BAD,BAD
KBDL,large_airport,Bradley International Airport,41.938899994,-72.683197022,US,US-CT,Hartford,BDL,BDL
KBFI,large_airport,Boeing Field King County International Airport,47.529998779,-122.302001953,US,US-WA,Seattle,BFI,BFI
KBGR,large_airport,Bangor International Airport,44.807399750,-68.828102112,US,US-ME,Bangor,BGR,BGR
KBHM,large_airport,Birmingham-Shuttlesworth International Airport,33.562900540,-86.753501890,US,US-AL,Birmingham,BHM,BHM
KBIL,large_airport,Billings Logan International Airport,45.807701111,-108.542999268,US,US-MT,Billings,BIL,BIL
KBLV,large_airport,Scott AFB/Midamerica Airport,38.545200000,-89.835197000,US,US-IL,Belleville,BLV,BLV
KBMI,large_airport,Central Illinois Regional Airport at Bloomington-Normal,40.477100370,-88.915901180,US,US-IL,Bloomington/Normal,BMI,BMI
KBNA,large_airport,Nashville International Airport,36.124500275,-86.678199768,US,US-TN,Nashville,BNA,BNA
KBOI,large_airport,Boise Air Terminal/Gowen field,43.564399720,-116.222999600,US,US-ID,Boise,BOI,BOI
KBOS,large_airport,General Edward Lawrence Logan International Airport,42.364299770,-71.005203250,US,US-MA,Boston,BOS,BOS
KBTR,large_airport,"Baton Rouge Metropolitan, Ryan Field",30.533199310,-91.149597170,US,US-LA,Baton Rouge,BTR,BTR
KBUF,large_airport,Buffalo Niagara International Airport,42.940498350,-78.732200620,US,US-NY,Buffalo,BUF,BUF
KBWI,large_airport,Baltimore/Washington International Thurgood Marshall Airport,39.175399780,-76.668296810,US,US-MD,Baltimore,BWI,BWI
KCAE,large_airport,Columbia Metropolitan Airport,33.938800812,-81.119499207,US,US-SC,Columbia,CAE,CAE
KCBM,large_airport,Columbus Air Force Base,33.643798828,-88.443801880,US,US-MS,Columbus,CBM,CBM
KCHA,large_airport,Lovell Field,35.035301208,-85.203796387,US,US-TN,Chattanooga,CHA,CHA
KCHS,large_airport,Charleston Air Force Base-International Airport,32.898601530,-80.040496830,US,US-SC,Charleston,CHS,CHS
KCID,large_airport,The Eastern Iowa Airport,41.884700775,-91.710800171,US,US-IA,Cedar Rapids,CID,CID
KCLE,large_airport,Cleveland Hopkins International Airport,41.411701202,-81.849800110,US,US-OH,Cleveland,CLE,CLE
KCLT,large_airport,Charlotte Douglas International Airport,35.214000702,-80.943099976,US,US-NC,Charlotte,CLT,CLT
KCMH,large_airport,John Glenn Columbus International Airport,39.998001000,-82.891899000,US,US-OH,Columbus,CMH,CMH
KCOS,large_airport,City of Colorado Springs Municipal Airport,38.805801392,-104.700996399,US,US-CO,Colorado Springs,COS,COS
KCPR,large_airport,Casper-Natrona County International Airport,42.908000950,-106.463996900,US,US-WY,Casper,CPR,CPR
KCRP,large_airport,Corpus Christi International Airport,27.770399094,-97.501197815,US,US-TX,Corpus Christi,CRP,CRP
KCRW,large_airport,Yeager Airport,38.373100281,-81.593200684,US,US-WV,Charleston,CRW,CRW
KCVG,large_airport,Cincinnati Northern Kentucky International Airport,39.048801422,-84.667800903,US,US-KY,Cincinnati,CVG,CVG
KCVS,large_airport,Cannon Air Force Base,34.382801056,-103.321998596,US,US-NM,Clovis,CVS,CVS
KDAB,large_airport,Daytona Beach International Airport,29.179899000,-81.058098000,US,US-FL,Daytona Beach,DAB,DAB
KDAL,large_airport,Dallas Love Field,32.847099000,-96.851799000,US,US-TX,Dallas,DAL,DAL
KDAY,large_airport,James M Cox Dayton International Airport,39.902400970,-84.219398499,US,US-OH,Dayton,DAY,DAY
KDBQ,large_airport,Dubuque Regional Airport,42.402000430,-90.709503170,US,US-IA,Dubuque,DBQ,DBQ
KDCA,large_airport,Ronald Reagan Washington National Airport,38.852100000,-77.037697000,US,US-DC,Washington,DCA,DCA
KDEN,large_airport,Denver International Airport,39.861698151,-104.672996521,US,US-CO,Denver,DEN,DEN
KDFW,large_airport,Dallas Fort Worth International Airport,32.896800995,-97.038002014,US,US-TX,Dallas-Fort Worth,DFW,DFW
KDLF,large_airport,Laughlin Air Force Base,29.359500885,-100.777999878,US,US-TX,Del Rio,DLF,DLF
KDLH,large_airport,Duluth International Airport,46.842098236,-92.193603516,US,US-MN,Duluth,DLH,DLH
KDOV,large_airport,Dover Air Force Base,39.129501340,-75.466003420,US,US-DE,Dover,DOV,DOV
KDSM,large_airport,Des Moines International Airport,41.534000397,-93.663101196,US,US-IA,Des Moines,DSM,DSM
KDTW,large_airport,Detroit Metropolitan Wayne County Airport,42.212398529,-83.353401184,US,US-MI,Detroit,DTW,DTW
KDYS,large_airport,Dyess Air Force Base,32.420799255,-99.854598999,US,US-TX,Abilene,DYS,DYS
KEDW,large_airport,Edwards Air Force Base,34.905399000,-117.884003000,US,US-CA,Edwards,EDW,EDW
KEND,large_airport,Vance Air Force Base,36.339199066,-97.916496277,US,US-OK,Enid,END,END
KERI,large_airport,Erie International Tom Ridge Field,42.083127013,-80.173866749,US,US-PA,Erie,ERI,ERI
KEWR,large_airport,Newark Liberty International Airport,40.692501068,-74.168701172,US,US-NJ,Newark,EWR,EWR
KFFO,large_airport,Wright-Patterson Air Force Base,39.826099396,-84.048301697,US,US-OH,Dayton,FFO,FFO
KFLL,large_airport,Fort Lauderdale Hollywood International Airport,26.072599411,-80.152702332,US,US-FL,Fort Lauderdale,FLL,FLL
KFSM,large_airport,Fort Smith Regional Airport,35.336601257,-94.367401123,US,US-AR,Fort Smith,FSM,FSM
KFTW,large_airport,Fort Worth Meacham International Airport,32.819801000,-97.362396000,US,US-TX,Fort Worth,FTW,FTW
KFWA,large_airport,Fort Wayne International Airport,40.978500370,-85.195098880,US,US-IN,Fort Wayne,FWA,FWA
KGEG,large_airport,Spokane International Airport,47.619899750,-117.533996582,US,US-WA,Spokane,GEG,GEG
KGPT,large_airport,Gulfport Biloxi International Airport,30.407300949,-89.070098877,US,US-MS,Gulfport,GPT,GPT
KGRB,large_airport,Austin Straubel International Airport,44.485099792,-88.129600525,US,US-WI,Green Bay,GRB,GRB
KGSB,large_airport,Seymour Johnson Air Force Base,35.339401250,-77.960601810,US,US-NC,Goldsboro,GSB,GSB
KGSO,large_airport,Piedmont Triad International Airport,36.097801208,-79.937301636,US,US-NC,Greensboro,GSO,GSO
KGSP,large_airport,Greenville Spartanburg International Airport,34.895698547,-82.218902588,US,US-SC,Greenville,GSP,GSP
KGUS,large_airport,Grissom Air Reserve Base,40.648101807,-86.152099609,US,US-IN,Peru,GUS,GUS
KHIB,large_airport,Range Regional Airport,47.386600490,-92.838996890,US,US-MN,Hibbing,HIB,HIB
KHMN,large_airport,Holloman Air Force Base,32.852500916,-106.107002258,US,US-NM,Alamogordo,HMN,HMN
KHOU,large_airport,William P Hobby Airport,29.645399090,-95.278900150,US,US-TX,Houston,HOU,HOU
KHSV,large_airport,Huntsville International Carl T Jones Field,34.637199402,-86.775100708,US,US-AL,Huntsville,HSV,HSV
KHTS,large_airport,Tri-State/Milton J. Ferguson Field,38.366699220,-82.557998660,US,US-WV,Huntington,HTS,HTS
KIAD,large_airport,Washington Dulles International Airport,38.944499970,-77.455802920,US,US-DC,Washington,IAD,IAD
KIAH,large_airport,George Bush Intercontinental Houston Airport,29.984399796,-95.341400146,US,US-TX,Houston,IAH,IAH
KICT,large_airport,Wichita Mid Continent Airport,37.649898529,-97.433097839,US,US-KS,Wichita,ICT,ICT
KIND,large_airport,Indianapolis International Airport,39.717300000,-86.294403000,US,US-IN,Indianapolis,IND,IND
KJAN,large_airport,Jackson-Medgar Wiley Evers International Airport,32.311199188,-90.075897217,US,US-MS,Jackson,JAN,JAN
KJAX,large_airport,Jacksonville International Airport,30.494100571,-81.687896729,US,US-FL,Jacksonville,JAX,JAX
KJFK,large_airport,John F Kennedy International Airport,40.639801030,-73.778900150,US,US-NY,New York,JFK,JFK
KJLN,large_airport,Joplin Regional Airport,37.151798248,-94.498298645,US,US-MO,Joplin,JLN,JLN
KLAS,large_airport,McCarran International Airport,36.080101010,-115.152000400,US,US-NV,Las Vegas,LAS,LAS
KLAX,large_airport,Los Angeles International Airport,33.942501070,-118.407997100,US,US-CA,Los Angeles,LAX,LAX
KLBB,large_airport,Lubbock Preston Smith International Airport,33.663601000,-101.822998000,US,US-TX,Lubbock,LBB,LBB
KLCK,large_airport,Rickenbacker International Airport,39.813801000,-82.927803000,US,US-OH,Columbus,LCK,LCK
KLEX,large_airport,Blue Grass Airport,38.036499023,-84.605903625,US,US-KY,Lexington,LEX,LEX
KLFI,large_airport,Langley Air Force Base,37.082901001,-76.360496521,US,US-VA,Hampton,LFI,LFI
KLFT,large_airport,Lafayette Regional Airport,30.205299380,-91.987602230,US,US-LA,Lafayette,LFT,LFT
KLGA,large_airport,La Guardia Airport,40.777198790,-73.872596740,US,US-NY,New York,LGA,LGA
KLIT,large_airport,Bill & Hillary Clinton National Airport/Adams Field,34.729400635,-92.224296570,US,US-AR,Little Rock,LIT,LIT
KLTS,large_airport,Altus Air Force Base,34.667098999,-99.266700745,US,US-OK,Altus,LTS,LTS
KLUF,large_airport,Luke Air Force Base,33.534999847,-112.383003235,US,US-AZ,Glendale,LUF,LUF
KMBS,large_airport,MBS International Airport,43.532901764,-84.079597473,US,US-MI,Saginaw,MBS,MBS
KMCF,large_airport,Mac Dill Air Force Base,27.849300380,-82.521202090,US,US-FL,Tampa,MCF,MCF
KMCI,large_airport,Kansas City International Airport,39.297600000,-94.713898000,US,US-MO,Kansas City,MCI,MCI
KMCO,large_airport,Orlando International Airport,28.429399490,-81.308998108,US,US-FL,Orlando,MCO,MCO
KMDW,large_airport,Chicago Midway International Airport,41.785999298,-87.752403259,US,US-IL,Chicago,MDW,MDW
KMEM,large_airport,Memphis International Airport,35.042400360,-89.976699829,US,US-TN,Memphis,MEM,MEM
KMGE,large_airport,Dobbins Air Reserve Base,33.915401460,-84.516296390,US,US-GA,Marietta,MGE,MGE
KMGM,large_airport,Montgomery Regional (Dannelly Field) Airport,32.300598140,-86.393997190,US,US-AL,Montgomery,MGM,MGM
KMHT,large_airport,Manchester Airport,42.932598114,-71.435699463,US,US-NH,Manchester,MHT,MHT
KMIA,large_airport,Miami International Airport,25.793199539,-80.290603638,US,US-FL,Miami,MIA,MIA
KMKE,large_airport,General Mitchell International Airport,42.947200775,-87.896598816,US,US-WI,Milwaukee,MKE,MKE
KMLI,large_airport,Quad City International Airport,41.448501587,-90.507499695,US,US-IL,Moline,MLI,MLI
KMLU,large_airport,Monroe Regional Airport,32.510898590,-92.037696838,US,US-LA,Monroe,MLU,MLU
KMOB,large_airport,Mobile Regional Airport,30.691200256,-88.242797852,US,US-AL,Mobile,MOB,MOB
KMSN,large_airport,Dane County Regional Truax Field,43.139900208,-89.337501526,US,US-WI,Madison,MSN,MSN
KMSP,large_airport,Minneapolis-St Paul International/Wold-Chamberlain Airport,44.881999970,-93.221801758,US,US-MN,Minneapolis,MSP,MSP
KMSY,large_airport,Louis Armstrong New Orleans International Airport,29.993400574,-90.258003235,US,US-LA,New Orleans,MSY,MSY
KMUO,large_airport,Mountain Home Air Force Base,43.043598000,-115.872002000,US,US-ID,Mountain Home,MUO,MUO
KOAK,large_airport,Metropolitan Oakland International Airport,37.721298000,-122.221001000,US,US-CA,Oakland,OAK,OAK
KOKC,large_airport,Will Rogers World Airport,35.393100739,-97.600700378,US,US-OK,Oklahoma City,OKC,OKC
KONT,large_airport,Ontario International Airport,34.055999756,-117.600997925,US,US-CA,Ontario,ONT,ONT
KORD,large_airport,Chicago O'Hare International Airport,41.978599550,-87.904800420,US,US-IL,Chicago,ORD,ORD
KORF,large_airport,Norfolk International Airport,36.894599915,-76.201202393,US,US-VA,Norfolk,ORF,ORF
KPAM,large_airport,Tyndall Air Force Base,30.069599152,-85.575401306,US,US-FL,Panama City,PAM,PAM
KPBI,large_airport,Palm Beach International Airport,26.683200836,-80.095596313,US,US-FL,West Palm Beach,PBI,PBI
KPDX,large_airport,Portland International Airport,45.588699340,-122.597999600,US,US-OR,Portland,PDX,PDX
KPHF,large_airport,Newport News Williamsburg International Airport,37.131900790,-76.492996220,US,US-VA,Newport News,PHF,PHF
KPHL,large_airport,Philadelphia International Airport,39.871898651,-75.241096497,US,US-PA,Philadelphia,PHL,PHL
KPHX,large_airport,Phoenix Sky Harbor International Airport,33.434299469,-112.012001038,US,US-AZ,Phoenix,PHX,PHX
KPIA,large_airport,General Wayne A. Downing Peoria International Airport,40.664199829,-89.693298340,US,US-IL,Peoria,PIA,PIA
KPIT,large_airport,Pittsburgh International Airport,40.491500850,-80.232902530,US,US-PA,Pittsburgh,PIT,PIT
KPWM,large_airport,Portland International Jetport Airport,43.646198270,-70.309303280,US,US-ME,Portland,PWM,PWM
KRDU,large_airport,Raleigh Durham International Airport,35.877601624,-78.787498474,US,US-NC,Raleigh/Durham,RDU,RDU
KRFD,large_airport,Chicago Rockford International Airport,42.195400238,-89.097198486,US,US-IL,Chicago/Rockford,RFD,RFD
KRIC,large_airport,Richmond International Airport,37.505199432,-77.319702148,US,US-VA,Richmond,RIC,RIC
KRND,large_airport,Randolph Air Force Base,29.529699330,-98.278900150,US,US-TX,Universal City,RND,RND
KRNO,large_airport,Reno Tahoe International Airport,39.499099731,-119.767997742,US,US-NV,Reno,RNO,RNO
KROA,large_airport,Roanoke–Blacksburg Regional Airport,37.325500000,-79.975403000,US,US-VA,Roanoke,ROA,ROA
KROC,large_airport,Greater Rochester International Airport,43.118900299,-77.672401428,US,US-NY,Rochester,ROC,ROC
KRST,large_airport,Rochester International Airport,43.908298492,-92.500000000,US,US-MN,Rochester,RST,RST
KRSW,large_airport,Southwest Florida International Airport,26.536199570,-81.755203247,US,US-FL,Fort Myers,RSW,RSW
KSAN,large_airport,San Diego International Airport,32.733600617,-117.190002441,US,US-CA,San Diego,SAN,SAN
KSAT,large_airport,San Antonio International Airport,29.533700943,-98.469802856,US,US-TX,San Antonio,SAT,SAT
KSAV,large_airport,Savannah Hilton Head International Airport,32.127601620,-81.202102660,US,US-GA,Savannah,SAV,SAV
KSBN,large_airport,South Bend Regional Airport,41.708698273,-86.317298889,US,US-IN,South Bend,SBN,SBN
KSDF,large_airport,Louisville International Standiford Field,38.174400000,-85.736000000,US,US-KY,Louisville,SDF,SDF
KSEA,large_airport,Seattle Tacoma International Airport,47.449001312,-122.308998108,US,US-WA,Seattle,SEA,SEA
KSFB,large_airport,Orlando Sanford International Airport,28.777599335,-81.237503052,US,US-FL,Orlando,SFB,SFB
KSFO,large_airport,San Francisco International Airport,37.618999481,-122.375000000,US,US-CA,San Francisco,SFO,SFO
KSGF,large_airport,Springfield Branson National Airport,37.245700840,-93.388603210,US,US-MO,Springfield,SGF,SGF
KSHV,large_airport,Shreveport Regional Airport,32.446601868,-93.825599670,US,US-LA,Shreveport,SHV,SHV
KSJC,large_airport,Norman Y. Mineta San Jose International Airport,37.362598000,-121.929001000,US,US-CA,San Jose,SJC,SJC
KSKA,large_airport,Fairchild Air Force Base,47.615100861,-117.655998230,US,US-WA,Spokane,SKA,SKA
KSLC,large_airport,Salt Lake City International Airport,40.788398743,-111.977996826,US,US-UT,Salt Lake City,SLC,SLC
KSMF,large_airport,Sacramento International Airport,38.695400238,-121.591003418,US,US-CA,Sacramento,SMF,SMF
KSNA,large_airport,John Wayne Airport-Orange County Airport,33.675701140,-117.867996200,US,US-CA,Santa Ana,SNA,SNA
KSPI,large_airport,Abraham Lincoln Capital Airport,39.844100950,-89.677902220,US,US-IL,Springfield,SPI,SPI
KSPS,large_airport,Sheppard Air Force Base-Wichita Falls Municipal Airport,33.988800000,-98.491898000,US,US-TX,Wichita Falls,SPS,SPS
KSRQ,large_airport,Sarasota Bradenton International Airport,27.395399094,-82.554397583,US,US-FL,Sarasota/Bradenton,SRQ,SRQ
KSSC,large_airport,Shaw Air Force Base,33.972698210,-80.470596310,US,US-SC,Sumter,SSC,SSC
KSTL,large_airport,St Louis Lambert International Airport,38.748697000,-90.370003000,US,US-MO,St Louis,STL,STL
KSUS,large_airport,Spirit of St Louis Airport,38.662101746,-90.652000427,US,US-MO,St Louis,SUS,SUS
KSUU,large_airport,Travis Air Force Base,38.262699127,-121.927001953,US,US-CA,Fairfield,SUU,SUU
KSUX,large_airport,Sioux Gateway Col. Bud Day Field,42.402599330,-96.384399410,US,US-IA,Sioux City,SUX,SUX
KSYR,large_airport,Syracuse Hancock International Airport,43.111198425,-76.106300354,US,US-NY,Syracuse,SYR,SYR
KSZL,large_airport,Whiteman Air Force Base,38.730300903,-93.547897339,US,US-MO,Knob Noster,SZL,SZL
KTCM,large_airport,McChord Air Force Base,47.137699127,-122.475997925,US,US-WA,Tacoma,TCM,TCM
KTIK,large_airport,Tinker Air Force Base,35.414699554,-97.386596680,US,US-OK,Oklahoma City,TIK,TIK
KTLH,large_airport,Tallahassee Regional Airport,30.396499634,-84.350303650,US,US-FL,Tallahassee,TLH,TLH
KTOL,large_airport,Toledo Express Airport,41.586799620,-83.807800290,US,US-OH,Toledo,TOL,TOL
KTPA,large_airport,Tampa International Airport,27.975500107,-82.533203125,US,US-FL,Tampa,TPA,TPA
KTRI,large_airport,Tri-Cities Regional TN/VA Airport,36.475201000,-82.407401000,US,US-TN,Bristol/Johnson/Kingsport,TRI,TRI
KTUL,large_airport,Tulsa International Airport,36.198398590,-95.888099670,US,US-OK,Tulsa,TUL,TUL
KTUS,large_airport,Tucson International Airport,32.116100311,-110.941001892,US,US-AZ,Tucson,TUS,TUS
KTYS,large_airport,McGhee Tyson Airport,35.811000820,-83.994003300,US,US-TN,Knoxville,TYS,TYS
KVBG,large_airport,Vandenberg Air Force Base,34.737300873,-120.583999634,US,US-CA,Lompoc,VBG,VBG
KVPS,large_airport,Destin-Ft Walton Beach Airport,30.483200000,-86.525398000,US,US-FL,Valparaiso,VPS,VPS
KWRB,large_airport,Robins Air Force Base,32.640098572,-83.591903687,US,US-GA,Warner Robins,WRB,WRB
LATI,large_airport,Tirana International Airport Mother Teresa,41.414699554,19.720600128,AL,AL-11,Tirana,TIA,
LBBG,large_airport,Burgas Airport,42.569599152,27.515199661,BG,BG-02,Burgas,BOJ,
LBSF,large_airport,Sofia Airport,42.696693420,23.411436081,BG,BG-23,Sofia,SOF,
LBWN,large_airport,Varna Airport,43.232101000,27.825100000,BG,BG-03,Varna,VAR,
LCLK,large_airport,Larnaca International Airport,34.875099182,33.624900818,CY,CY-04,Larnarca,LCA,
LCPH,large_airport,Paphos International Airport,34.717998505,32.485698700,CY,CY-06,Paphos,PFO,
LCRA,large_airport,RAF Akrotiri,34.590401000,32.987900000,GB,GB-U-A,Akrotiri,AKT,
LDZA,large_airport,Zagreb Airport,45.742900848,16.068799973,HR,HR-21,Zagreb,ZAG,
LEAL,large_airport,Alicante International Airport,38.282199860,-0.558156013,ES,ES-V,Alicante,ALC,
LEBL,large_airport,Barcelona International Airport,41.297100067,2.078459978,ES,ES-CT,Barcelona,BCN,
LEMD,large_airport,Adolfo Suárez Madrid–Barajas Airport,40.471926000,-3.562640000,ES,ES-M,Madrid,MAD,
LEMG,large_airport,Málaga Airport,36.674900055,-4.499110222,ES,ES-AN,Málaga,AGP,
LEPA,large_airport,Palma De Mallorca Airport,39.551700592,2.738810062,ES,ES-PM,Palma De Mallorca,PMI,
LEST,large_airport,Santiago de Compostela Airport,42.896301270,-8.415140152,ES,ES-GA,Santiago de Compostela,SCQ,
LFBD,large_airport,Bordeaux-Mérignac Airport,44.828300476,-0.715556026,FR,FR-B,Bordeaux/Mérignac,BOD,
LFBO,large_airport,Toulouse-Blagnac Airport,43.629101000,1.363820000,FR,FR-N,Toulouse/Blagnac,TLS,
LFLL,large_airport,Lyon Saint-Exupéry Airport,45.725556000,5.081111000,FR,FR-V,Lyon,LYS,
LFML,large_airport,Marseille Provence Airport,43.439271922,5.221424103,FR,FR-U,Marseille,MRS,
LFMN,large_airport,Nice-Côte d'Azur Airport,43.658401489,7.215869904,FR,FR-U,Nice,NCE,
LFPG,large_airport,Charles de Gaulle International Airport,49.012798309,2.549999952,FR,FR-J,Paris,CDG,
LFPO,large_airport,Paris-Orly Airport,48.723333300,2.379444400,FR,FR-J,Paris,ORY,
LFSB,large_airport,EuroAirport Basel-Mulhouse-Freiburg Airport,47.590000000,7.529166700,FR,FR-A,Bâle/Mulhouse,BSL,
LGAV,large_airport,Eleftherios Venizelos International Airport,37.936401367,23.944499970,GR,GR-A1,Athens,ATH,
LGIR,large_airport,Heraklion International Nikos Kazantzakis Airport,35.339698792,25.180299759,GR,GR-91,Heraklion,HER,
LGTS,large_airport,Thessaloniki Macedonia International Airport,40.519699097,22.970899582,GR,GR-54,Thessaloniki,SKG,
LHBP,large_airport,Budapest Ferenc Liszt International Airport,47.436901093,19.255599976,HU,HU-PE,Budapest,BUD,
LIBD,large_airport,Bari Karol Wojtyła Airport,41.138901000,16.760599000,IT,IT-75,Bari,BRI,BA02
LICC,large_airport,Catania-Fontanarossa Airport,37.466801000,15.066400000,IT,IT-82,Catania,CTA,CT03
LICJ,large_airport,Falcone–Borsellino Airport,38.175999000,13.091000000,IT,IT-82,Palermo,PMO,PA03
LIEE,large_airport,Cagliari Elmas Airport,39.251499000,9.054280000,IT,IT-88,Cagliari,CAG,CA07
LIMC,large_airport,Malpensa International Airport,45.630600000,8.728110000,IT,IT-25,Milan,MXP,MI12
LIME,large_airport,Il Caravaggio International Airport,45.673901000,9.704170000,IT,IT-25,Bergamo,BGY,BG01
LIMF,large_airport,Turin Airport,45.200802000,7.649630000,IT,IT-21,Torino,TRN,TO11
LIMJ,large_airport,Genoa Cristoforo Colombo Airport,44.413300000,8.837500000,IT,IT-42,Genova,GOA,GE01
LIML,large_airport,Milano Linate Airport,45.445099000,9.276740000,IT,IT-25,Milan,LIN,MI11
LIPE,large_airport,Bologna Guglielmo Marconi Airport,44.535400000,11.288700000,IT,IT-45,Bologna,BLQ,BO08
LIPH,large_airport,Treviso-Sant'Angelo Airport,45.648399000,12.194400000,IT,IT-34,Treviso,TSF,TV01
LIPX,large_airport,Verona Villafranca Airport,45.395699000,10.888500000,IT,IT-34,Verona,VRN,VR10
LIPZ,large_airport,Venice Marco Polo Airport,45.505299000,12.351900000,IT,IT-34,Venice,VCE,VE05
LIRA,large_airport,Ciampino–G. B. Pastine International Airport,41.799400000,12.594900000,IT,IT-62,Rome,CIA,RM12
LIRF,large_airport,Leonardo da Vinci–Fiumicino Airport,41.800277800,12.238888900,IT,IT-62,Rome,FCO,RM11
LIRN,large_airport,Naples International Airport,40.886002000,14.290800000,IT,IT-72,Nápoli,NAP,NA01
LIRP,large_airport,Pisa International Airport,43.683899000,10.392700000,IT,IT-52,Pisa,PSA,PI05
LJLJ,large_airport,Ljubljana Jože Pučnik Airport,46.223701000,14.457600000,SI,SI-061,Ljubljana,LJU,
LKPR,large_airport,Václav Havel Airport Prague,50.100800000,14.260000000,CZ,CZ-PR,Prague,PRG,
LLBG,large_airport,Ben Gurion International Airport,32.011398315,34.886699677,IL,IL-M,Tel Aviv,TLV,
LLOV,large_airport,Ovda International Airport,29.940299988,34.935798645,IL,IL-D,Eilat,VDA,
LMML,large_airport,Malta International Airport,35.857498000,14.477500000,MT,MT-25,Valletta,MLA,
LOWW,large_airport,Vienna International Airport,48.110298157,16.569700241,AT,AT-9,Vienna,VIE,
LPFR,large_airport,Faro Airport,37.014400482,-7.965909958,PT,PT-08,Faro,FAO,
LPLA,large_airport,Lajes Airport,38.761799000,-27.090799000,PT,PT-20,Praia da Vitória,TER,
LPPD,large_airport,João Paulo II Airport,37.741199493,-25.697900772,PT,PT-20,Ponta Delgada,PDL,
LPPR,large_airport,Francisco de Sá Carneiro Airport,41.248100281,-8.681389809,PT,PT-13,Porto,OPO,
LPPT,large_airport,Humberto Delgado Airport (Lisbon Portela Airport),38.781300000,-9.135920000,PT,PT-11,Lisbon,LIS,
LQSA,large_airport,Sarajevo International Airport,43.824600220,18.331499100,BA,BA-BIH,Sarajevo,SJJ,
LROP,large_airport,Henri Coandă International Airport,44.571111100,26.085000000,RO,RO-B,Bucharest,OTP,
LSGG,large_airport,Geneva Cointrin International Airport,46.238098145,6.108950138,CH,CH-GE,Geneva,GVA,
LSZH,large_airport,Zürich Airport,47.464699000,8.549170000,CH,CH-ZH,Zurich,ZRH,
LTAC,large_airport,Esenboğa International Airport,40.128101349,32.995098114,TR,TR-06,Ankara,ESB,
LTAF,large_airport,Adana Airport,36.982200623,35.280399323,TR,TR-01,Adana,ADA,
LTAI,large_airport,Antalya International Airport,36.898701000,30.800501000,TR,TR-07,Antalya,AYT,
LTAJ,large_airport,Gaziantep International Airport,36.947200775,37.478698731,TR,TR-27,Gaziantep,GZT,
LTBA,large_airport,Atatürk International Airport,40.976898000,28.814600000,TR,TR-34,Istanbul,IAT,
LTBJ,large_airport,Adnan Menderes International Airport,38.292400360,27.156999588,TR,TR-35,İzmir,ADB,
LTBS,large_airport,Dalaman International Airport,36.713100433,28.792499542,TR,TR-48,Dalaman,DLM,
LTCE,large_airport,Erzurum International Airport,39.956501007,41.170200348,TR,TR-25,Erzurum,ERZ,
LTCG,large_airport,Trabzon International Airport,40.995098114,39.789699554,TR,TR-61,Trabzon,TZX,
LTFC,large_airport,Süleyman Demirel International Airport,37.855400085,30.368400574,TR,TR-32,Isparta,ISE,
LTFE,large_airport,Milas Bodrum International Airport,37.250598908,27.664300919,TR,TR-48,Bodrum,BJV,
LTFJ,large_airport,Sabiha Gökçen International Airport,40.898601532,29.309200287,TR,TR-34,Istanbul,SAW,
LYBE,large_airport,Belgrade Nikola Tesla Airport,44.818401337,20.309099197,RS,RS-00,Belgrade,BEG,
LYPG,large_airport,Podgorica Airport,42.359402000,19.251900000,ME,ME-16,Podgorica,TGD,
LZIB,large_airport,M. R. Štefánik Airport,48.170200348,17.212699890,SK,SK-BL,Bratislava,BTS,
MDPC,large_airport,Punta Cana International Airport,18.567399979,-68.363403320,DO,DO-11,Punta Cana,PUJ,
MDSD,large_airport,Las Américas International Airport,18.429700851,-69.668899536,DO,DO-01,Santo Domingo,SDQ,
MKJP,large_airport,Norman Manley International Airport,17.935699463,-76.787498474,JM,JM-01,Kingston,KIN,
MMAA,large_airport,General Juan N Alvarez International Airport,16.757099152,-99.753997803,MX,MX-GRO,Acapulco,ACA,
MMGL,large_airport,Don Miguel Hidalgo Y Costilla International Airport,20.521799088,-103.310997009,MX,MX-JAL,Guadalajara,GDL,
MMHO,large_airport,General Ignacio P. Garcia International Airport,29.095899582,-111.047996521,MX,MX-SON,Hermosillo,HMO,
MMMX,large_airport,Licenciado Benito Juarez International Airport,19.436300000,-99.072098000,MX,MX-DIF,Mexico City,MEX,ME1
MMMY,large_airport,General Mariano Escobedo International Airport,25.778499603,-100.107002258,MX,MX-NLE,Monterrey,MTY,
MMPR,large_airport,Licenciado Gustavo Díaz Ordaz International Airport,20.680099487,-105.253997803,MX,MX-JAL,Puerto Vallarta,PVR,
MMSD,large_airport,Los Cabos International Airport,23.151800156,-109.721000671,MX,MX-BCS,San José del Cabo,SJD,
MMTJ,large_airport,General Abelardo L. Rodríguez International Airport,32.541099548,-116.970001221,MX,MX-BCN,Tijuana,TIJ,
MMUN,large_airport,Cancún International Airport,21.036500931,-86.877098084,MX,MX-ROO,Cancún,CUN,
MPTO,large_airport,Tocumen International Airport,9.071359634,-79.383499146,PA,PA-8,Tocumen,PTY,
MRLB,large_airport,Daniel Oduber Quiros International Airport,10.593300000,-85.544403000,CR,CR-G,Liberia,LIR,
MSLP,large_airport,Monseñor Óscar Arnulfo Romero International Airport,13.440900000,-89.055702000,SV,SV-PA,San Salvador (San Luis Talpa),SAL,
MUHA,large_airport,José Martí International Airport,22.989200592,-82.409103394,CU,CU-03,Havana,HAV,
MUVR,large_airport,Juan Gualberto Gomez International Airport,23.034400940,-81.435302734,CU,CU-04,Varadero,VRA,
MWCR,large_airport,Owen Roberts International Airport,19.292800903,-81.357696533,KY,KY-U-A,Georgetown,GCM,
MYNN,large_airport,Lynden Pindling International Airport,25.038999558,-77.466201782,BS,BS-NP,Nassau,NAS,
MZBZ,large_airport,Philip S. W. Goldson International Airport,17.539100647,-88.308197021,BZ,BZ-BZ,Belize City,BZE,
NCRG,large_airport,Rarotonga International Airport,-21.202699661,-159.805999756,CK,CK-U-A,Avarua,RAR,
NZAA,large_airport,Auckland International Airport,-37.008098602,174.792007446,NZ,NZ-AUK,Auckland,AKL,
NZCH,large_airport,Christchurch International Airport,-43.489398956,172.531997681,NZ,NZ-CAN,Christchurch,CHC,
NZWN,large_airport,Wellington International Airport,-41.327201843,174.804992676,NZ,NZ-WGN,Wellington,WLG,
OBBI,large_airport,Bahrain International Airport,26.270799637,50.633598328,BH,BH-15,Manama,BAH,
OEDF,large_airport,King Fahd International Airport,26.471200943,49.797901154,SA,SA-04,Ad Dammam,DMM,
OEDR,large_airport,King Abdulaziz Air Base,26.265399933,50.152000427,SA,SA-04,,DHA,
OEJN,large_airport,King Abdulaziz International Airport,21.679600000,39.156502000,SA,SA-02,Jeddah,JED,
OEMA,large_airport,Prince Mohammad Bin Abdulaziz Airport,24.553400000,39.705101000,SA,SA-03,Medina,MED,
OERK,large_airport,King Khaled International Airport,24.957599640,46.698799133,SA,SA-01,Riyadh,RUH,
OIIE,large_airport,Imam Khomeini International Airport,35.416099548,51.152198792,IR,IR-07,Tehran,IKA,
OIII,large_airport,Mehrabad International Airport,35.689201355,51.313400269,IR,IR-07,Tehran,THR,
OIMM,large_airport,Mashhad International Airport,36.235198975,59.640998840,IR,IR-30,Mashhad,MHD,
OISS,large_airport,Shiraz Shahid Dastghaib International Airport,29.539199829,52.589801788,IR,IR-14,Shiraz,SYZ,
OITT,large_airport,Tabriz International Airport,38.133899689,46.235000610,IR,IR-01,Tabriz,TBZ,
OJAI,large_airport,Queen Alia International Airport,31.722600937,35.993198395,JO,JO-AM,Amman,AMM,
OKBK,large_airport,Kuwait International Airport,29.226600647,47.968898773,KW,KW-FA,Kuwait City,KWI,
OLBA,large_airport,Beirut Rafic Hariri International Airport,33.820899963,35.488399506,LB,LB-JL,Beirut,BEY,
OM-0003,large_airport,Duqm International Airport,19.501944000,57.634167000,OM,OM-WU,Duqm,DQM,
OM-0004,large_airport,Rustaq Airport,23.640556000,57.487500000,OM,OM-BA,Al Masna'ah,MNH,
OMAA,large_airport,Abu Dhabi International Airport,24.433000565,54.651100159,AE,AE-AZ,Abu Dhabi,AUH,
OMDB,large_airport,Dubai International Airport,25.252799988,55.364398956,AE,AE-DU,Dubai,DXB,
OMDW,large_airport,Al Maktoum International Airport,24.896356000,55.161389000,AE,AE-DU,Jebel Ali,DWC,
OMSJ,large_airport,Sharjah International Airport,25.328599930,55.517200470,AE,AE-SH,Sharjah,SHJ,
OOMS,large_airport,Muscat International Airport,23.593299866,58.284400940,OM,OM-MA,Muscat,MCT,
OPRN,large_airport,Benazir Bhutto International Airport,33.616699219,73.099197388,PK,PK-IS,Islamabad,ISB,
OPST,large_airport,Sialkot Airport,32.535556793,74.363891602,PK,PK-PB,Sialkot,SKT,
RODN,large_airport,Kadena Air Base,26.355600000,127.767998000,JP,JP-47,,DNA,
ORBI,large_airport,Baghdad International Airport,33.262500763,44.234600067,IQ,IQ-BG,Baghdad,BGW,
ORMM,large_airport,Basrah International Airport,30.549100876,47.662101746,IQ,IQ-BA,Basrah,BSR,
OSAP,large_airport,Aleppo International Airport,36.180698395,37.224399567,SY,SY-HL,Aleppo,ALP,
OSDI,large_airport,Damascus International Airport,33.411499023,36.515598297,SY,SY-DI,Damascus,DAM,
OSLK,large_airport,Bassel Al-Assad International Airport,35.401100159,35.948699951,SY,SY-LA,Latakia,LTK,
PAFA,large_airport,Fairbanks International Airport,64.815101620,-147.856002800,US,US-AK,Fairbanks,FAI,FAI
PANC,large_airport,Ted Stevens Anchorage International Airport,61.174400330,-149.996002197,US,US-AK,Anchorage,ANC,ANC
PGUM,large_airport,Antonio B. Won Pat International Airport,13.483400345,144.796005249,GU,GU-U-A,"Hagåtña, Guam International Airport",GUM,GUM
PH-0001,large_airport,Laguindingan Airport,8.612203000,124.456496000,PH,PH-MSR,Cagayan de Oro City,CGY,
PHNL,large_airport,Daniel K Inouye International Airport,21.320620000,-157.924228000,US,US-HI,Honolulu,HNL,HNL
PK-0001,large_airport,New Islamabad International Airport,33.560713000,72.851613000,PK,PK-IS,Islamabad,ISB,
QA-0001,large_airport,Hamad International Airport,25.273056000,51.608056000,QA,QA-DA,Doha,DOH,
RCBS,large_airport,Kinmen Airport,24.427900000,118.359001000,TW,TW-X-KM,Shang-I,KNH,
RCKH,large_airport,Kaohsiung International Airport,22.577100754,120.349998474,TW,TW-KHH,Kaohsiung City,KHH,
RCTP,large_airport,Taiwan Taoyuan International Airport,25.077700000,121.233002000,TW,TW-TAO,Taipei,TPE,
RJAA,large_airport,Narita International Airport,35.764701843,140.386001587,JP,JP-12,Tokyo,NRT,
RJBB,large_airport,Kansai International Airport,34.427299500,135.244003296,JP,JP-27,Osaka,KIX,
RJCC,large_airport,New Chitose Airport,42.775199890,141.692001343,JP,JP-01,Chitose / Tomakomai,CTS,
RJFF,large_airport,Fukuoka Airport,33.585899353,130.451004028,JP,JP-40,Fukuoka,FUK,
RJFK,large_airport,Kagoshima Airport,31.803400040,130.718994141,JP,JP-46,Kagoshima,KOJ,
RJGG,large_airport,Chubu Centrair International Airport,34.858398438,136.804992676,JP,JP-23,Tokoname,NGO,
rjns,large_airport,Mt. Fuji Shizuoka Airport,34.796043468,138.187751770,JP,JP-22,Makinohara / Shimada,FSZ,
RJOO,large_airport,Osaka International Airport,34.785499573,135.438003540,JP,JP-27,Osaka,ITM,
RJTT,large_airport,Tokyo Haneda International Airport,35.552299000,139.779999000,JP,JP-13,Tokyo,HND,
RJTY,large_airport,Yokota Air Base,35.748500824,139.348007202,JP,JP-13,Fussa,OKO,
RKJB,large_airport,Muan International Airport,34.991406000,126.382814000,KR,KR-46,Piseo-ri (Muan),MWX,
RKJK,large_airport,Kunsan Air Base,35.903800964,126.615997314,KR,KR-45,Kunsan,KUV,
RKPC,large_airport,Jeju International Airport,33.511299133,126.492996216,KR,KR-49,Jeju City,CJU,
RKPK,large_airport,Gimhae International Airport,35.179500580,128.938003540,KR,KR-26,Busan,PUS,
RKSI,large_airport,Incheon International Airport,37.469100952,126.450996399,KR,KR-28,Seoul,ICN,
RKSO,large_airport,Osan Air Base,37.090599000,127.029999000,KR,KR-41,,OSN,
RKSS,large_airport,Gimpo International Airport,37.558300000,126.791000000,KR,KR-11,Seoul,GMP,
RKTU,large_airport,Cheongju International Airport/Cheongju Air Base (K-59/G-513),36.717008000,127.498741000,KR,KR-43,Cheongju,CJJ,
ROAH,large_airport,Naha Airport,26.195800781,127.646003723,JP,JP-47,Naha,OKA,
RPLC,large_airport,Diosdado Macapagal International Airport,15.186000000,120.559998000,PH,PH-PAM,Angeles/Mabalacat,CRK,
RPLL,large_airport,Ninoy Aquino International Airport,14.508600000,121.019997000,PH,PH-U-A,Manila,MNL,
RPMD,large_airport,Francisco Bangoy International Airport,7.125520229,125.646003723,PH,PH-DAV,Davao City,DVO,
RPVM,large_airport,Mactan Cebu International Airport,10.307499886,123.978996277,PH,PH-CEB,Lapu-Lapu City,CEB,
RU-0035,large_airport,Grozny North Airport,43.388302000,45.698601000,RU,RU-CE,Grozny,GRV,
SAEZ,large_airport,Ministro Pistarini International Airport,-34.822200000,-58.535800000,AR,AR-B,Buenos Aires,EZE,EZE
SBBE,large_airport,Val de Cans/Júlio Cezar Ribeiro International Airport,-1.379250050,-48.476299286,BR,BR-PA,Belém,BEL,
SBBR,large_airport,Presidente Juscelino Kubistschek International Airport,-15.869167328,-47.920833588,BR,BR-DF,Brasília,BSB,
SBCF,large_airport,Tancredo Neves International Airport,-19.624443054,-43.971942902,BR,BR-MG,Belo Horizonte,CNF,
SBCT,large_airport,Afonso Pena Airport,-25.528499603,-49.175800324,BR,BR-PR,Curitiba,CWB,
SBFL,large_airport,Hercílio Luz International Airport,-27.670278549,-48.552501678,BR,BR-SC,Florianópolis,FLN,
SBGL,large_airport,Rio Galeão – Tom Jobim International Airport,-22.809999466,-43.250556946,BR,BR-RJ,Rio De Janeiro,GIG,
SBGR,large_airport,Guarulhos - Governador André Franco Montoro International Airport,-23.435556412,-46.473056793,BR,BR-SP,São Paulo,GRU,
SBSG,large_airport,Governador Aluízio Alves International Airport,-5.768056000,-35.376111000,BR,BR-RN,Natal,NAT,
SBSP,large_airport,Congonhas Airport,-23.626110077,-46.656387329,BR,BR-SP,São Paulo,CGH,
SBSV,large_airport,Deputado Luiz Eduardo Magalhães International Airport,-12.908611298,-38.322498322,BR,BR-BA,Salvador,SSA,
SCEL,large_airport,Comodoro Arturo Merino Benítez International Airport,-33.393001556,-70.785797119,CL,CL-RM,Santiago,SCL,
SELT,large_airport,Cotopaxi International Airport,-0.906832993,-78.615798950,EC,EC-X,Latacunga,LTX,
SEQM,large_airport,Mariscal Sucre International Airport,-0.129166667,-78.357500000,EC,EC-P,Quito,UIO,UIO
SKBO,large_airport,El Dorado International Airport,4.701590000,-74.146900000,CO,CO-CUN,Bogota,BOG,BOG
SPIM,large_airport,Jorge Chávez International Airport,-12.021900000,-77.114305000,PE,PE-LIM,Lima,LIM,
SPZO,large_airport,Alejandro Velasco Astete International Airport,-13.535699844,-71.938796997,PE,PE-CUS,Cusco,CUZ,
SUMU,large_airport,Carrasco International /General C L Berisso Airport,-34.838402000,-56.030800000,UY,UY-CA,Montevideo,MVD,
SVBC,large_airport,General José Antonio Anzoategui International Airport,10.111111110,-64.692222220,VE,VE-B,Barcelona,BLA,
SVMI,large_airport,Simón Bolívar International Airport,10.601194000,-66.991222000,VE,VE-X,Caracas,CCS,
TFFR,large_airport,Pointe-à-Pitre Le Raizet,16.265301000,-61.531799000,GP,GP-U-A,Pointe-à-Pitre,PTP,
TJSJ,large_airport,Luis Munoz Marin International Airport,18.439399719,-66.001800537,PR,PR-U-A,San Juan,SJU,SJU
TN-0002,large_airport,Enfidha - Hammamet International Airport,36.075833000,10.438611000,TN,TN-51,Enfidha,NBE,
TNCM,large_airport,Princess Juliana International Airport,18.041000366,-63.108898163,SX,SX-U-A,Saint Martin,SXM,
TR-0043,large_airport,İstanbul New Airport,41.262948000,28.741330000,TR,TR-34,,IST,
UAAA,large_airport,Almaty Airport,43.352100372,77.040496826,KZ,KZ-ALM,Almaty,ALA,
UACC,large_airport,Astana International Airport,51.022201538,71.466903687,KZ,KZ-AKM,Astana,TSE,
UAFM,large_airport,Manas International Airport,43.061298370,74.477600098,KG,KG-C,Bishkek,FRU,
UAKK,large_airport,Sary-Arka Airport,49.670799255,73.334396362,KZ,KZ-KAR,Karaganda,KGF,
UBBB,large_airport,Heydar Aliyev International Airport,40.467498779,50.046699524,AZ,AZ-BA,Baku,GYD,
UDYZ,large_airport,Zvartnots International Airport,40.147300720,44.395900726,AM,AM-ER,Yerevan,EVN,
UGTB,large_airport,Tbilisi International Airport,41.669200897,44.954700470,GE,GE-TB,Tbilisi,TBS,
UHHH,large_airport,Khabarovsk-Novy Airport,48.527999878,135.188003540,RU,RU-KHA,Khabarovsk,KHV,
UKBB,large_airport,Boryspil International Airport,50.345001221,30.894699097,UA,UA-32,Kiev,KBP,
UKFF,large_airport,Simferopol International Airport,45.052200317,33.975101471,UA,UA-43,Simferopol,SIP,
UKHH,large_airport,Kharkiv International Airport,49.924800873,36.290000916,UA,UA-63,Kharkiv,HRK,
UKOO,large_airport,Odessa International Airport,46.426799774,30.676500320,UA,UA-51,Odessa,ODS,
ULLI,large_airport,Pulkovo Airport,59.800300598,30.262500763,RU,RU-SPE,St. Petersburg,LED,
UMMS,large_airport,Minsk National Airport,53.882499695,28.030700684,BY,BY-MI,Minsk,MSQ,
UNKL,large_airport,Yemelyanovo Airport,56.172901000,92.493301000,RU,RU-KYA,Krasnoyarsk,KJA,
UNNT,large_airport,Tolmachevo Airport,55.012599945,82.650703430,RU,RU-NVS,Novosibirsk,OVB,
URRP,large_airport,Platov International Airport,47.493888000,39.924722000,RU,RU-ROS,Rostov-on-Don,ROV,
URSS,large_airport,Sochi International Airport,43.449902000,39.956600000,RU,RU-KDA,Sochi,AER,
USSS,large_airport,Koltsovo Airport,56.743099213,60.802700043,RU,RU-SVE,Yekaterinburg,SVX,
UTTT,large_airport,Tashkent International Airport,41.257900238,69.281196594,UZ,UZ-TO,Tashkent,TAS,
UUBW,large_airport,Zhukovsky International Airport,55.553299000,38.150002000,RU,RU-MOS,Zhukovsky,ZIA,
UUDD,large_airport,Domodedovo International Airport,55.408798218,37.906299591,RU,RU-MOS,Moscow,DME,
UUEE,large_airport,Sheremetyevo International Airport,55.972599000,37.414600000,RU,RU-MOS,Moscow,SVO,
UUWW,large_airport,Vnukovo International Airport,55.591499329,37.261501312,RU,RU-MOS,Moscow,VKO,
UWKD,large_airport,Kazan International Airport,55.606201172,49.278701782,RU,RU-TA,Kazan,KZN,
UWUU,large_airport,Ufa International Airport,54.557498932,55.874401093,RU,RU-BA,Ufa,UFA,
UWWW,large_airport,Kurumoch International Airport,53.504901886,50.164299011,RU,RU-SAM,Samara,KUF,
VABB,large_airport,Chhatrapati Shivaji International Airport,19.088699341,72.867897034,IN,IN-MM,Mumbai,BOM,
VAGO,large_airport,Dabolim Airport,15.380800247,73.831398010,IN,IN-GA,Vasco da Gama,GOI,
VCBI,large_airport,Bandaranaike International Colombo Airport,7.180759907,79.884101868,LK,LK-1,Colombo,CMB,
VCRI,large_airport,Mattala Rajapaksa International Airport,6.284467000,81.124128000,LK,LK-3,,HRI,VCRI
VDPP,large_airport,Phnom Penh International Airport,11.546600342,104.844001770,KH,KH-8,Phnom Penh,PNH,
VDSR,large_airport,Siem Reap International Airport,13.410699844,103.813003540,KH,KH-17,Siem Reap,REP,
VECC,large_airport,Netaji Subhash Chandra Bose International Airport,22.654699326,88.446701050,IN,IN-WB,Kolkata,CCU,
VHHH,large_airport,Chek Lap Kok International Airport,22.308900833,113.915000916,HK,HK-U-A,Hong Kong,HKG,
VIAR,large_airport,Sri Guru Ram Dass Jee International Airport,31.709600449,74.797302246,IN,IN-PB,Amritsar,ATQ,
VIDP,large_airport,Indira Gandhi International Airport,28.566500000,77.103104000,IN,IN-DL,New Delhi,DEL,
VMMC,large_airport,Macau International Airport,22.149599000,113.592003000,MO,MO-U-A,Macau,MFM,
VOBL,large_airport,Kempegowda International Airport,13.197900000,77.706299000,IN,IN-KA,Bangalore,BLR,
VOCI,large_airport,Cochin International Airport,10.152000000,76.401901000,IN,IN-KL,Kochi,COK,
VOCL,large_airport,Calicut International Airport,11.136799812,75.955299377,IN,IN-KL,Calicut,CCJ,
VOHS,large_airport,Rajiv Gandhi International Airport,17.231317520,78.429855347,IN,IN-TG,Hyderabad,HYD,
VOMM,large_airport,Chennai International Airport,12.990005493,80.169296265,IN,IN-TN,Chennai,MAA,
VOTV,large_airport,Trivandrum International Airport,8.482119560,76.920097351,IN,IN-KL,Thiruvananthapuram,TRV,
VRMM,large_airport,Malé International Airport,4.191830158,73.529098511,MV,MV-MLE,Malé,MLE,
VTBD,large_airport,Don Mueang International Airport,13.912599564,100.607002258,TH,TH-10,Bangkok,DMK,
VTBS,large_airport,Suvarnabhumi Airport,13.681099892,100.747001648,TH,TH-10,Bangkok,BKK,
VTCC,large_airport,Chiang Mai International Airport,18.766799927,98.962600708,TH,TH-50,Chiang Mai,CNX,
VTSP,large_airport,Phuket International Airport,8.113200000,98.316902000,TH,TH-83,Phuket,HKT,
VVDN,large_airport,Da Nang International Airport,16.043899536,108.198997498,VN,VN-60,Da Nang,DAD,
VVNB,large_airport,Noi Bai International Airport,21.221200943,105.806999207,VN,VN-15,Hanoi,HAN,
VVTS,large_airport,Tan Son Nhat International Airport,10.818799973,106.652000427,VN,VN-23,Ho Chi Minh City,SGN,
VYMD,large_airport,Mandalay International Airport,21.702199936,95.977897644,MM,MM-04,Mandalay,MDL,
VYYY,large_airport,Yangon International Airport,16.907300949,96.133201599,MM,MM-06,Yangon,RGN,
WAAA,large_airport,Hasanuddin International Airport,-5.061629772,119.554000854,ID,ID-SN,Ujung Pandang-Celebes Island,UPG,
WADD,large_airport,Ngurah Rai (Bali) International Airport,-8.748169899,115.166999817,ID,ID-BA,Denpasar-Bali Island,DPS,
WARR,large_airport,Juanda International Airport,-7.379829884,112.787002563,ID,ID-JI,Surabaya,SUB,
WAXX,large_airport,Dominique Edward Osok Airport,-0.894000000,131.287000000,ID,ID-PB,Sorong-Papua Island,SOQ,
WBSB,large_airport,Brunei International Airport,4.944200039,114.928001404,BN,BN-BM,Bandar Seri Begawan,BWN,
WIII,large_airport,Soekarno-Hatta International Airport,-6.125569820,106.655998230,ID,ID-BT,Jakarta,CGK,
WIMM,large_airport,Kualanamu International Airport,3.642222000,98.885278000,ID,ID-SU,,KNO,
WMKK,large_airport,Kuala Lumpur International Airport,2.745579958,101.709999084,MY,MY-14,Kuala Lumpur,KUL,
WSSS,large_airport,Singapore Changi Airport,1.350190000,103.994003000,SG,SG-04,Singapore,SIN,
YBBN,large_airport,Brisbane International Airport,-27.384199142,153.117004395,AU,AU-QLD,Brisbane,BNE,
YMML,large_airport,Melbourne International Airport,-37.673302000,144.843002000,AU,AU-VIC,Melbourne,MEL,
YMX,large_airport,International Airport of Mirabel - Academy of Aeronautics of Canada Flying School training,0.000000000,0.000000000,CA,CA-QC,Mirabel,YMX,
YPAD,large_airport,Adelaide International Airport,-34.945000000,138.531006000,AU,AU-SA,Adelaide,ADL,
YPPH,large_airport,Perth International Airport,-31.940299988,115.967002869,AU,AU-WA,Perth,PER,
YSCB,large_airport,Canberra International Airport,-35.306900024,149.195007324,AU,AU-ACT,Canberra,CBR,
YSSY,large_airport,Sydney Kingsford Smith International Airport,-33.946098328,151.177001953,AU,AU-NSW,Sydney,SYD,
ZBAA,large_airport,Beijing Capital International Airport,40.080101013,116.584999084,CN,CN-11,Beijing,PEK,
ZBHH,large_airport,Baita International Airport,40.851398000,111.823997000,CN,CN-15,Hohhot,HET,
ZBNY,large_airport,Beijing Nanyuan Airport,39.782798767,116.388000488,CN,CN-11,Beijing,NAY,
ZBTJ,large_airport,Tianjin Binhai International Airport,39.124401093,117.346000671,CN,CN-12,Tianjin,TSN,
ZBYN,large_airport,Taiyuan Wusu Airport,37.746898651,112.627998352,CN,CN-14,Taiyuan,TYN,
ZGGG,large_airport,Guangzhou Baiyun International Airport,23.392400742,113.299003601,CN,CN-44,Guangzhou,CAN,
ZGHA,large_airport,Changsha Huanghua International Airport,28.189199448,113.220001221,CN,CN-43,Changsha,CSX,
ZGKL,large_airport,Guilin Liangjiang International Airport,25.218099594,110.039001465,CN,CN-45,Guilin City,KWL,
ZGNN,large_airport,Nanning Wuxu Airport,22.608299255,108.171997070,CN,CN-45,Nanning,NNG,
ZGSZ,large_airport,Shenzhen Bao'an International Airport,22.639299393,113.810997009,CN,CN-44,Shenzhen,SZX,
ZHCC,large_airport,Zhengzhou Xinzheng International Airport,34.519699097,113.841003418,CN,CN-41,Zhengzhou,CGO,
ZHHH,large_airport,Wuhan Tianhe International Airport,30.783800000,114.208000000,CN,CN-42,Wuhan,WUH,
ZJHK,large_airport,Haikou Meilan International Airport,19.934900284,110.458999634,CN,CN-46,Haikou,HAK,
ZJSY,large_airport,Sanya Phoenix International Airport,18.302900314,109.412002563,CN,CN-46,Sanya,SYX,
ZLXY,large_airport,Xi'an Xianyang International Airport,34.447102000,108.751999000,CN,CN-61,Xi'an,XIY,
ZPPP,large_airport,Kunming Changshui International Airport,25.101944400,102.929166700,CN,CN-53,Kunming,KMG,
ZSAM,large_airport,Xiamen Gaoqi International Airport,24.544000626,118.127998352,CN,CN-35,Xiamen,XMN,
ZSFZ,large_airport,Fuzhou Changle International Airport,25.935100555,119.663002014,CN,CN-35,Fuzhou,FOC,
ZSHC,large_airport,Hangzhou Xiaoshan International Airport,30.229499817,120.433998108,CN,CN-33,Hangzhou,HGH,
ZSJN,large_airport,Yaoqiang Airport,36.857200623,117.216003418,CN,CN-37,Jinan,TNA,
ZSNB,large_airport,Ningbo Lishe International Airport,29.826700211,121.461997986,CN,CN-33,Ningbo,NGB,
ZSNJ,large_airport,Nanjing Lukou Airport,31.742000580,118.861999512,CN,CN-32,Nanjing,NKG,
ZSPD,large_airport,Shanghai Pudong International Airport,31.143400192,121.805000305,CN,CN-31,Shanghai,PVG,
ZSSS,large_airport,Shanghai Hongqiao International Airport,31.197900772,121.335998535,CN,CN-31,Shanghai,SHA,
ZSWZ,large_airport,Wenzhou Longwan International Airport,27.912201000,120.851997000,CN,CN-33,Wenzhou,WNZ,
ZUCK,large_airport,Chongqing Jiangbei International Airport,29.719200134,106.641998291,CN,CN-50,Chongqing,CKG,
ZUGY,large_airport,Longdongbao Airport,26.538499832,106.801002502,CN,CN-52,Guiyang,KWE,
ZUUU,large_airport,Chengdu Shuangliu International Airport,30.578500748,103.946998596,CN,CN-51,Chengdu,CTU,
ZWWW,large_airport,Ürümqi Diwopu International Airport,43.907100677,87.474197388,CN,CN-65,Ürümqi,URC,
ZYHB,large_airport,Taiping Airport,45.623401642,126.250000000,CN,CN-23,Harbin,HRB,
ZYTL,large_airport,Zhoushuizi Airport,38.965698242,121.539001465,CN,CN-21,Dalian,DLC,
ZYTX,large_airport,Taoxian Airport,41.639801025,123.483001709,CN,CN-21,Shenyang,SHE,
